[
    {
        "id": 1, "name": "リストランテ agano", "description": "あがのフレームワーク", "latitude": 33.8820298 , "longitude": 130.8816532, "holiday": 0
    },
    {
        "id": 2, "name": "醍醐花山", "description": "とろろおかわり自由", "latitude": 33.8839149 , "longitude": 130.8744467, "holiday": 7
    },
    {
        "id": 3, "name": "いづも", "description": "蕎麦屋なのにうどんメイン", "latitude": 33.8848011 , "longitude": 130.8791758, "holiday": 7
    },
    {
        "id": 4, "name": "丸亀", "description": "丸亀は一人で食べるもの", "latitude": 33.8848231 , "longitude": 130.8726097, "holiday": 7
    },
    {
        "id": 5, "name": "さんさん", "description": "なんで肉が5枚しか入ってねぇんだよ...", "latitude": 33.8830442 , "longitude": 130.8844285, "holiday": 0
    },
    {
        "id": 6, "name": "翔", "description": "美魔女(秋野目線)", "latitude": 33.8818609 , "longitude": 130.8795201, "holiday": 7
    },
    {
        "id": 7, "name": "藤王", "description": "不定休だが木曜がだいたい休み", "latitude": 33.8838081 , "longitude": 130.8777882, "holiday": 7
    },
    {
        "id": 8, "name": "八雲亭", "description": "ｹﾃ....ﾀｽｹﾃ....", "latitude": 33.8838055 , "longitude": 130.8824473, "holiday": 7
    },
    {
        "id": 9,  "name": "魚と鳥の家 ととんち", "description": "はじまりの町", "latitude": 33.8829541 , "longitude": 130.8806624, "holiday": 7
    },
    {
        "id": 10,  "name": "縦読みの店", "description": "卵おかわり自由", "latitude": 999 , "longitude": 999, "holiday": 7
    },
    {
        "id": 11,  "name": "龍園", "description": "ドラゴンガーデン", "latitude": 999 , "longitude": 999, "holiday": 7
    },
    {
        "id": 12,  "name": "天ぷら屋", "description": "てんぷら亭", "latitude": 999 , "longitude": 999, "holiday": 7
    },
    {
        "id": 13,  "name": "てんや", "description": "てんやはごちそう", "latitude": 999 , "longitude": 999, "holiday": 7
    }
]
